[
  {
    "id": 1195,
    "name": "3 Freaks Brewing Co",
    "brewery_type": "micro",
    "street": "7140 E County Line Rd",
    "city": "Highlands Ranch",
    "state": "Colorado",
    "postal_code": "80126-3926",
    "country": "United States",
    "longitude": "-104.9426656",
    "latitude": "39.5659575",
    "phone": "7202990994",
    "website_url": "http://www.3freaksbrewery.com",
    "updated_at": "2018-08-24T00:05:14.991Z",
    "tag_list": []
  },
  {
    "id": 1222,
    "name": "Barrels \u0026 Bottles Brewery",
    "brewery_type": "brewpub",
    "street": "600 12th St Ste 160",
    "city": "Golden",
    "state": "Colorado",
    "postal_code": "80401-6145",
    "country": "United States",
    "longitude": "-105.2202098",
    "latitude": "39.7562107",
    "phone": "7203283643",
    "website_url": "http://www.barrelsbottles.com",
    "updated_at": "2018-08-24T00:05:36.634Z",
    "tag_list": []
  },
  {
    "id": 1227,
    "name": "BierWerks",
    "brewery_type": "brewpub",
    "street": "121 E. Midland Ave",
    "city": "Woodland Park",
    "state": "Colorado",
    "postal_code": "80863",
    "country": "United States",
    "longitude": "-105.0519462",
    "latitude": "38.9941414",
    "phone": "7196868100",
    "website_url": "http://www.bierwerks.com",
    "updated_at": "2018-08-24T00:05:41.424Z",
    "tag_list": []
  },
  {
    "id": 1229,
    "name": "Big Choice Brewing Co",
    "brewery_type": "micro",
    "street": "21 S 1st Ave",
    "city": "Brighton",
    "state": "Colorado",
    "postal_code": "80601-1603",
    "country": "United States",
    "longitude": "-104.822433",
    "latitude": "39.9864294285714",
    "phone": "3034692616",
    "website_url": "http://www.bigchoicebrewing.com",
    "updated_at": "2018-08-24T00:05:43.462Z",
    "tag_list": []
  },
  {
    "id": 1333,
    "name": "Dodgeton Creek Brewing Co.",
    "brewery_type": "planning",
    "street": "",
    "city": "Trinidad",
    "state": "Colorado",
    "postal_code": "81082-9788",
    "country": "United States",
    "longitude": "-104.5005411",
    "latitude": "37.169397",
    "phone": "7198462339",
    "website_url": "http://www.dodgetoncreek.com",
    "updated_at": "2018-08-24T00:06:57.576Z",
    "tag_list": []
  },
  {
    "id": 1250,
    "name": "Brass Brewing Company",
    "brewery_type": "micro",
    "street": "318 E Colorado Ave",
    "city": "Colorado Springs",
    "state": "Colorado",
    "postal_code": "80903-1949",
    "country": "United States",
    "longitude": "-104.818970612347",
    "latitude": "38.8326073",
    "phone": "",
    "website_url": "",
    "updated_at": "2018-08-24T00:22:11.364Z",
    "tag_list": []
  },
  {
    "id": 1279,
    "name": "Burgundian Brewing Co.",
    "brewery_type": "micro",
    "street": "4725 Lipan St",
    "city": "Denver",
    "state": "Colorado",
    "postal_code": "80211-2334",
    "country": "United States",
    "longitude": "-105.002409475111",
    "latitude": "39.7825168",
    "phone": "4704400420",
    "website_url": "http://www.facebook.com/BurgundianBrewing",
    "updated_at": "2018-08-24T00:22:21.710Z",
    "tag_list": []
  },
  {
    "id": 1296,
    "name": "Chain Reaction Brewing Company",
    "brewery_type": "micro",
    "street": "902 S Lipan St",
    "city": "Denver",
    "state": "Colorado",
    "postal_code": "80223-2717",
    "country": "United States",
    "longitude": "-105.001629",
    "latitude": "39.698793755102",
    "phone": "3039220960",
    "website_url": "http://www.chainreactionbrewingco.com",
    "updated_at": "2018-08-24T00:22:31.364Z",
    "tag_list": []
  },
  {
    "id": 1319,
    "name": "Crystal Springs Brewing Co",
    "brewery_type": "micro",
    "street": "657 S Taylor Ave",
    "city": "Louisville",
    "state": "Colorado",
    "postal_code": "80027-3063",
    "country": "United States",
    "longitude": "-105.119781",
    "latitude": "39.964883",
    "phone": "3038845602",
    "website_url": "http://www.crystalspringsbrewing.com",
    "updated_at": "2018-08-24T00:22:43.801Z",
    "tag_list": []
  },
  {
    "id": 1337,
    "name": "Dostal Alley Brewing Co",
    "brewery_type": "brewpub",
    "street": "116 Main St",
    "city": "Central City",
    "state": "Colorado",
    "postal_code": "80427",
    "country": "United States",
    "longitude": "-105.512426",
    "latitude": "39.8001431",
    "phone": "3035821610",
    "website_url": "http://www.dostalalley.net",
    "updated_at": "2018-08-24T00:22:52.060Z",
    "tag_list": []
  },
  {
    "id": 1354,
    "name": "Estes Park Brewery",
    "brewery_type": "micro",
    "street": "470 Prospect Village Dr",
    "city": "Estes Park",
    "state": "Colorado",
    "postal_code": "80517",
    "country": "United States",
    "longitude": "-105.5261317",
    "latitude": "40.3714876",
    "phone": "9705865421",
    "website_url": "http://www.epbrewery.net",
    "updated_at": "2018-08-24T00:23:00.338Z",
    "tag_list": []
  },
  {
    "id": 1370,
    "name": "Glenwood Canyon Brewing Co",
    "brewery_type": "brewpub",
    "street": "402 7th St",
    "city": "Glenwood Springs",
    "state": "Colorado",
    "postal_code": "81601-3406",
    "country": "United States",
    "longitude": "-107.323424",
    "latitude": "39.5476563",
    "phone": "9709451276",
    "website_url": "http://www.glenwoodcanyon.com",
    "updated_at": "2018-08-24T00:23:08.569Z",
    "tag_list": []
  },
  {
    "id": 1373,
    "name": "Golden Block Brewery",
    "brewery_type": "brewpub",
    "street": "1227 Greene St",
    "city": "Silverton",
    "state": "Colorado",
    "postal_code": "81433",
    "country": "United States",
    "longitude": "-107.664230711091",
    "latitude": "37.8119443404304",
    "phone": "9703875962",
    "website_url": "http://www.goldenblockbrewery.com",
    "updated_at": "2018-08-24T00:23:10.194Z",
    "tag_list": []
  },
  {
    "id": 1396,
    "name": "High Alpine Brewing Company",
    "brewery_type": "brewpub",
    "street": "111 N Main St",
    "city": "Gunnison",
    "state": "Colorado",
    "postal_code": "81230-2330",
    "country": "United States",
    "longitude": "-106.927037673469",
    "latitude": "38.5446227755102",
    "phone": "9706424500",
    "website_url": "http://www.highalpinebrewing.com",
    "updated_at": "2018-08-24T00:23:23.068Z",
    "tag_list": []
  },
  {
    "id": 1419,
    "name": "Jessup Farm Barrel House",
    "brewery_type": "micro",
    "street": "1921 Jessup Dr",
    "city": "Fort Collins",
    "state": "Colorado",
    "postal_code": "80525-2551",
    "country": "United States",
    "longitude": "-105.0380013",
    "latitude": "40.5620458",
    "phone": "9705688345",
    "website_url": "http://jessupfarm.com/barrel-house/",
    "updated_at": "2018-08-24T00:23:33.661Z",
    "tag_list": []
  },
  {
    "id": 1428,
    "name": "Lariat Lodge Brewing",
    "brewery_type": "brewpub",
    "street": "27618 Fireweed Dr",
    "city": "Evergreen",
    "state": "Colorado",
    "postal_code": "80439-8462",
    "country": "United States",
    "longitude": "-105.313692483851",
    "latitude": "39.639351447261",
    "phone": "3036741842",
    "website_url": "http://www.LariatLodgeBrewing.com",
    "updated_at": "2018-08-24T00:23:38.065Z",
    "tag_list": []
  },
  {
    "id": 1448,
    "name": "Manitou Brewing Company",
    "brewery_type": "brewpub",
    "street": "725 Manitou Ave",
    "city": "Manitou Springs",
    "state": "Colorado",
    "postal_code": "80829-1809",
    "country": "United States",
    "longitude": "-104.915741327052",
    "latitude": "38.8569869",
    "phone": "7192827709",
    "website_url": "http://www.manitou-brewing.com",
    "updated_at": "2018-08-24T00:23:49.245Z",
    "tag_list": []
  },
  {
    "id": 1466,
    "name": "New Belgium Brewing Co",
    "brewery_type": "regional",
    "street": "500 Linden St",
    "city": "Fort Collins",
    "state": "Colorado",
    "postal_code": "80524-2457",
    "country": "United States",
    "longitude": "-105.067842181802",
    "latitude": "40.59335825",
    "phone": "9702210524",
    "website_url": "http://www.newbelgium.com",
    "updated_at": "2018-08-24T00:23:56.828Z",
    "tag_list": []
  },
  {
    "id": 1474,
    "name": "Odell Brewing Co",
    "brewery_type": "regional",
    "street": "800 E Lincoln Ave",
    "city": "Fort Collins",
    "state": "Colorado",
    "postal_code": "80524-2507",
    "country": "United States",
    "longitude": "-105.063332717858",
    "latitude": "40.5895239",
    "phone": "9704989070",
    "website_url": "http://www.odellbrewing.com",
    "updated_at": "2018-08-24T00:24:01.453Z",
    "tag_list": []
  },
  {
    "id": 1496,
    "name": "Peaks N Pines Brewing Company",
    "brewery_type": "micro",
    "street": "4005 Tutt Blvd",
    "city": "Colorado Springs",
    "state": "Colorado",
    "postal_code": "80922-2508",
    "country": "United States",
    "longitude": "-104.714604513467",
    "latitude": "38.889659925238",
    "phone": "7193586758",
    "website_url": "http://www.peaksnpinesbrewery.com",
    "updated_at": "2018-08-24T00:24:11.517Z",
    "tag_list": []
  }
]