[
  {
    "id": 1460,
    "name": "Mountain Sun Pub and Brewery",
    "type": "brewpub",
    "street": "1535 Pearl St",
    "city": "Boulder",
    "zip": "80302-5408",
    "latitude": "40.0190131",
    "longitude": "-105.2752277",
    "phone": "3035460886",
    "distance": 0.0001058276322217181,
    "websiteUrl": "http://www.mountainsunpub.com"
  },
  {
    "id": 1584,
    "name": "The Post Brewing Co",
    "type": "brewpub",
    "street": "2027 13th St",
    "city": "Boulder",
    "zip": "80302-5201",
    "latitude": "40.0184764897959",
    "longitude": "-105.278894204082",
    "phone": "7203723341",
    "distance": 0.1974164935240559,
    "websiteUrl": "http://www.postbrewing.com"
  },
  {
    "id": 1249,
    "name": "Boulder Beer On Walnut",
    "type": "brewpub",
    "street": "1123 Walnut St",
    "city": "Boulder",
    "zip": "80302-5116",
    "latitude": "40.0168555",
    "longitude": "-105.2804375",
    "phone": "3034471345",
    "distance": 0.3133078605885724,
    "websiteUrl": ""
  },
  {
    "id": 1618,
    "name": "West Flanders Brewing Co",
    "type": "brewpub",
    "street": "1125 Pearl St",
    "city": "Boulder",
    "zip": "80302-5103",
    "latitude": "40.0217453",
    "longitude": "-105.260866",
    "phone": "3034472739",
    "distance": 0.7831165813945888,
    "websiteUrl": "http://www.wfbrews.com"
  },
  {
    "id": 1231,
    "name": "BJs Restaurant \u0026 Brewery - Boulder",
    "type": "brewpub",
    "street": "1690 28th St",
    "city": "Boulder",
    "zip": "80301-",
    "latitude": "40.0291592",
    "longitude": "-105.258512",
    "phone": "3034405200",
    "distance": 1.1286434216479806,
    "websiteUrl": "http://www.bjsrestaurants.com"
  },
  {
    "id": 1248,
    "name": "Boulder Beer Co",
    "type": "regional",
    "street": "2880 Wilderness Pl",
    "city": "Boulder",
    "zip": "80301-5401",
    "latitude": "40.026439",
    "longitude": "-105.2480158",
    "phone": "",
    "distance": 1.5285942801045,
    "websiteUrl": ""
  },
  {
    "id": 1357,
    "name": "FATE Brewing Company",
    "type": "brewpub",
    "street": "1600 38th St Ste 100",
    "city": "Boulder",
    "zip": "80301-2610",
    "latitude": "40.0149794",
    "longitude": "-105.2454818",
    "phone": "",
    "distance": 1.598603432715939,
    "websiteUrl": ""
  },
  {
    "id": 1568,
    "name": "Stein Brewing Company",
    "type": "micro",
    "street": "2516 49th St",
    "city": "Boulder",
    "zip": "80301-2455",
    "latitude": "40.0238083",
    "longitude": "-105.2378323",
    "phone": "3033960384",
    "distance": 2.006314940328258,
    "websiteUrl": "http://www.jwellsbrewery.com"
  },
  {
    "id": 1274,
    "name": "BRU Handbuilt Ales and Eats",
    "type": "brewpub",
    "street": "5290 Arapahoe Ave",
    "city": "Boulder",
    "zip": "80303-1269",
    "latitude": "40.0141462",
    "longitude": "-105.2293345",
    "phone": "7206385193",
    "distance": 2.4517468787092493,
    "websiteUrl": "http://www.bruboulder.com"
  },
  {
    "id": 1625,
    "name": "Wild Woods Brewery",
    "type": "micro",
    "street": "5460 Conestoga Ct",
    "city": "Boulder",
    "zip": "80301-2724",
    "latitude": "40.0162153",
    "longitude": "-105.2258104",
    "phone": "3034841465",
    "distance": 2.622152576712802,
    "websiteUrl": "http://www.wildwoodsbrewery.com"
  },
  {
    "id": 1605,
    "name": "Upslope Brewing Company - Flatiron Park",
    "type": "micro",
    "street": "1898 S Flatiron Ct Ste 110",
    "city": "Boulder",
    "zip": "80301-2860",
    "latitude": "40.0203098",
    "longitude": "-105.2183136",
    "phone": "",
    "distance": 3.0129517602199276,
    "websiteUrl": "http://www.upslopebrewing.com"
  },
  {
    "id": 1217,
    "name": "Avery Brewing Co",
    "type": "regional",
    "street": "4910 Nautilus Ct N",
    "city": "Boulder",
    "zip": "80301-3242",
    "latitude": "40.0625835",
    "longitude": "-105.204765186937",
    "phone": "",
    "distance": 4.791224122084052,
    "websiteUrl": ""
  },
  {
    "id": 1351,
    "name": "Endo Brewing Company",
    "type": "micro",
    "street": "2755 Dagny Way Ste 101",
    "city": "Lafayette",
    "zip": "80026-8023",
    "latitude": "40.0144311",
    "longitude": "-105.1341065",
    "phone": "7204428052",
    "distance": 7.474324717584079,
    "websiteUrl": "http://endobrewing.com"
  },
  {
    "id": 1246,
    "name": "Bootstrap Brewing Co",
    "type": "micro",
    "street": "6778 N 79th St",
    "city": "Niwot",
    "zip": "80503-7118",
    "latitude": "40.09681246875",
    "longitude": "-105.16915809375",
    "phone": "3036524186",
    "distance": 7.769237239133989,
    "websiteUrl": "http://www.bootstrapbrewing.com"
  },
  {
    "id": 1193,
    "name": "12Degree Brewing",
    "type": "brewpub",
    "street": "820 Main St",
    "city": "Louisville",
    "zip": "80027-1865",
    "latitude": "39.9782443",
    "longitude": "-105.1319826",
    "phone": "3035791004",
    "distance": 8.088360745484263,
    "websiteUrl": "http://www.12degree.com"
  },
  {
    "id": 1319,
    "name": "Crystal Springs Brewing Co",
    "type": "micro",
    "street": "657 S Taylor Ave",
    "city": "Louisville",
    "zip": "80027-3063",
    "latitude": "39.964883",
    "longitude": "-105.119781",
    "phone": "3038845602",
    "distance": 9.038716041340098,
    "websiteUrl": "http://www.crystalspringsbrewing.com"
  },
  {
    "id": 1609,
    "name": "Uturn BBQ",
    "type": "brewpub",
    "street": "599 Crossing Dr",
    "city": "Lafayette",
    "zip": "80026-1797",
    "latitude": "40.0035307",
    "longitude": "-105.101616301982",
    "phone": "3039936033",
    "distance": 9.249653860476176,
    "websiteUrl": "http://www.uturnbbq.com"
  },
  {
    "id": 1521,
    "name": "Redgarden Brewery",
    "type": "brewpub",
    "street": "1700 Dogwood St",
    "city": "Louisville",
    "zip": "80027-1102",
    "latitude": "39.9674475",
    "longitude": "-105.1138827",
    "phone": "3036199601",
    "distance": 9.254054254524556,
    "websiteUrl": "http://www.redgardenbrewery.com"
  },
  {
    "id": 1585,
    "name": "The Post Brewing Co",
    "type": "brewpub",
    "street": "105 W Emma St",
    "city": "Lafayette",
    "zip": "80026-1501",
    "latitude": "39.99461105",
    "longitude": "-105.091316505787",
    "phone": "3035932066",
    "distance": 9.878235260410696,
    "websiteUrl": "http://www.postbrewing.com"
  }
]